{
    "results": [
        {
            "objectId": "ea67d383-2fd1-4b63-9c68-36549fd424d5",
            "address": "Mlinska ulica 2, 2000 Maribor, Slovenia",
            "location": {
                "__type": "GeoPoint",
                "latitude": 46.5603014,
                "longitude": 15.6553838
            }
        },
        {
            "objectId": "f4e788e2-10b4-4dc2-a165-2ea73341a5ff",
            "address": "Pobreška cesta 18, 2000 Maribor, Slovenia",
            "location": {
                "__type": "GeoPoint",
                "latitude": 46.5537403,
                "longitude": 15.6519573
            }
        },
        {
            "objectId": "86636364-2899-4c08-b2e3-2b5fc7b1dbbe",
            "address": "Grajski trg 6, 2000 Maribor, Slovenia",
            "location": {
                "__type": "GeoPoint",
                "latitude": 46.560041,
                "longitude": 15.6484564
            }
        },
        {
            "objectId": "8abbd067-cbdc-48af-b126-6e705a94f395",
            "address": "Regentova ulica 3, 2000 Maribor, Slovenia",
            "location": {
                "__type": "GeoPoint",
                "latitude": 46.54193919999999,
                "longitude": 15.6446789
            }
        },
        {
            "objectId": "4da65389-7b62-4c33-a94d-27711d81835e",
            "address": "Pohorska ulica 60, 2000 Maribor, Slovenia",
            "location": {
                "__type": "GeoPoint",
                "latitude": 46.5332049,
                "longitude": 15.599487
            }
        },
        {
            "objectId": "c829554b-50af-4bbe-9e1c-f997ef7bfd10",
            "address": "Slovenska ulica 15, 2000 Maribor, Slovenia",
            "location": {
                "__type": "GeoPoint",
                "latitude": 46.5602373,
                "longitude": 15.646012
            }
        },
        {
            "objectId": "4a87d24e-6e5c-49d3-8d56-9cfad3fb0f96",
            "address": "Ulica Eve Lovše 1, 2000 Maribor, Slovenia",
            "location": {
                "__type": "GeoPoint",
                "latitude": 46.5395577,
                "longitude": 15.6401086
            }
        },
        {
            "objectId": "2828beba-7ab3-4cd7-885a-6f312b6a84d5",
            "address": "Spodnje Dobrenje 41b, 2211 Pesnica pri Mariboru, Slovenia",
            "location": {
                "__type": "GeoPoint",
                "latitude": 46.6067447,
                "longitude": 15.6636046
            }
        },
        {
            "objectId": "0fbc9335-d4a4-4090-b94a-aae0291e0c94",
            "address": "Vetrinjska ulica 15, 2000 Maribor, Slovenia",
            "location": {
                "__type": "GeoPoint",
                "latitude": 46.5593704,
                "longitude": 15.647724
            }
        },
        {
            "objectId": "af7948e1-f06f-4ce5-aefa-f40b8dd67079",
            "address": "Loška ulica 10, 2000 Maribor, Slovenia",
            "location": {
                "__type": "GeoPoint",
                "latitude": 46.5568161,
                "longitude": 15.6500139
            }
        },
        {
            "objectId": "f3c2970c-7a6f-4050-8946-54928db73f38",
            "address": "Ulica Pohorskega bataljona 14, 2000 Maribor, Slovenia",
            "location": {
                "__type": "GeoPoint",
                "latitude": 46.5543748,
                "longitude": 15.6197401
            }
        },
        {
            "objectId": "16ad8746-6f53-4de3-ba56-a547ec07a9d6",
            "address": "Dravska ulica 8, 2000 Maribor, Slovenia",
            "location": {
                "__type": "GeoPoint",
                "latitude": 46.5568783,
                "longitude": 15.6453784
            }
        },
        {
            "objectId": "93af8375-c8e2-4312-98c7-df522ada028b",
            "address": "Ptujska cesta 131, 2000 Maribor, Slovenia",
            "location": {
                "__type": "GeoPoint",
                "latitude": 46.53109569999999,
                "longitude": 15.6699797
            }
        },
        {
            "objectId": "2fe87a7c-bb49-433d-915e-de63aa88ed26",
            "address": "Ob ribniku 1, 2000 Maribor, Slovenia",
            "location": {
                "__type": "GeoPoint",
                "latitude": 46.5390294,
                "longitude": 15.6045425
            }
        },
        {
            "objectId": "6b211a36-2e64-46fe-a5b9-73232c3d723f",
            "address": "Preradovičeva ulica 24, 2000 Maribor, Slovenia",
            "location": {
                "__type": "GeoPoint",
                "latitude": 46.5531611,
                "longitude": 15.6281818
            }
        },
        {
            "objectId": "956422d4-4b04-4eb3-81e8-e613eef60af5",
            "address": "Kardeljeva cesta 73, 2000 Maribor, Slovenia",
            "location": {
                "__type": "GeoPoint",
                "latitude": 46.5415269,
                "longitude": 15.6334461
            }
        },
        {
            "objectId": "9df1e67d-b188-4c5e-81b0-024d107bbc4b",
            "address": "Betnavska cesta 21, 2000 Maribor, Slovenia",
            "location": {
                "__type": "GeoPoint",
                "latitude": 46.548867,
                "longitude": 15.6404726
            }
        },
        {
            "objectId": "0d52482e-9f09-434a-9a3f-9ccf880534e0",
            "address": "Zagrebška c. 73, 2000 Maribor, Slovenia",
            "location": {
                "__type": "GeoPoint",
                "latitude": 46.5337182,
                "longitude": 15.6605271
            }
        },
        {
            "objectId": "70d78205-f075-4405-9ecc-ec9cf1808cab",
            "address": "Poštna ulica 12, 2000 Maribor, Slovenia",
            "location": {
                "__type": "GeoPoint",
                "latitude": 46.5587128,
                "longitude": 15.6449422
            }
        },
        {
            "objectId": "80eed0ec-238e-4e19-98ba-bec2720a88a3",
            "address": "Loška ulica 10, 2000 Maribor, Slovenia",
            "location": {
                "__type": "GeoPoint",
                "latitude": 46.5568161,
                "longitude": 15.6500139
            }
        },
        {
            "objectId": "7e3a08c6-6d7b-4845-a289-3cb32a3c707d",
            "address": "Ulica heroja Šlandra 10, 2000 Maribor, Slovenia",
            "location": {
                "__type": "GeoPoint",
                "latitude": 46.5591997,
                "longitude": 15.6532828
            }
        },
        {
            "objectId": "0506de33-a414-4cf9-a4a0-5b751841b5f3",
            "address": "Tržaška cesta 67a, 2000 Maribor, Slovenia",
            "location": {
                "__type": "GeoPoint",
                "latitude": 46.5222352,
                "longitude": 15.6527804
            }
        },
        {
            "objectId": "cf3ef9c4-f899-4683-811a-e057b53b30dc",
            "address": "Industrijska ulica 5, 2000 Maribor, Slovenia",
            "location": {
                "__type": "GeoPoint",
                "latitude": 46.5603217,
                "longitude": 15.6600813
            }
        },
        {
            "objectId": "82b894d5-3e43-470d-9631-b33dbda7e3bc",
            "address": "Slovenska ulica 9, 2000 Maribor, Slovenia",
            "location": {
                "__type": "GeoPoint",
                "latitude": 46.5602445,
                "longitude": 15.6469014
            }
        },
        {
            "objectId": "dbfaaa9c-5fa6-4f2a-8253-b6918f838e79",
            "address": "Jadranska cesta 23, 2000 Maribor, Slovenia",
            "location": {
                "__type": "GeoPoint",
                "latitude": 46.5379008,
                "longitude": 15.6442229
            }
        },
        {
            "objectId": "940b4640-89c6-44ba-98c1-b795af948f26",
            "address": "Na Otok 20, 2351 Kamnica, Slovenia",
            "location": {
                "__type": "GeoPoint",
                "latitude": 46.5655271,
                "longitude": 15.6191649
            }
        },
        {
            "objectId": "a2d86cfb-ae3d-4985-b453-85af5f4c8e78",
            "address": "Cesta XIV. divizije 89, 2000 Maribor, Slovenia",
            "location": {
                "__type": "GeoPoint",
                "latitude": 46.5456862,
                "longitude": 15.6743624
            }
        },
        {
            "objectId": "e3dd60e7-f694-4f98-83cf-106533082771",
            "address": "Gorkega ulica 45, 2000 Maribor, Slovenia",
            "location": {
                "__type": "GeoPoint",
                "latitude": 46.5502402,
                "longitude": 15.6387706
            }
        },
        {
            "objectId": "77044e30-9661-4365-a2c3-fb319ac993c3",
            "address": "Jurčičeva ulica 5, 2000 Maribor, Slovenia",
            "location": {
                "__type": "GeoPoint",
                "latitude": 46.5591862,
                "longitude": 15.6471533
            }
        },
        {
            "objectId": "d285f3fa-e720-4ec1-b8d4-6a7dd529cf46",
            "address": "Dupleška cesta 133, 2000 Maribor, Slovenia",
            "location": {
                "__type": "GeoPoint",
                "latitude": 46.5318232,
                "longitude": 15.6954064
            }
        },
        {
            "objectId": "a612ee5e-18ef-40de-90e8-1273785a37f7",
            "address": "Ulica heroja Nandeta 31, 2000 Maribor, Slovenia",
            "location": {
                "__type": "GeoPoint",
                "latitude": 46.5325255,
                "longitude": 15.6731679
            }
        },
        {
            "objectId": "293c87a7-b826-46b6-9be2-d47e875367fa",
            "address": "Betnavska cesta 122, 2000 Maribor, Slovenia",
            "location": {
                "__type": "GeoPoint",
                "latitude": 46.5384491,
                "longitude": 15.6356814
            }
        },
        {
            "objectId": "cf6ba60f-3cd8-4a8e-b1ab-fe61e98dd9c7",
            "address": "Turnerjeva ulica 17, 2000 Maribor, Slovenia",
            "location": {
                "__type": "GeoPoint",
                "latitude": 46.563108,
                "longitude": 15.6295763
            }
        },
        {
            "objectId": "5a4f000c-8ce1-46c7-8a1e-9d52465574f2",
            "address": "Ulica Pariške komune 37, 2000 Maribor, Slovenia",
            "location": {
                "__type": "GeoPoint",
                "latitude": 46.5485693,
                "longitude": 15.6430374
            }
        },
        {
            "objectId": "d91e74d8-c30f-462e-a8f2-e097f9119742",
            "address": "Cesta proletarskih brigad 101, 2000 Maribor, Slovenia",
            "location": {
                "__type": "GeoPoint",
                "latitude": 46.5457494,
                "longitude": 15.6171371
            }
        },
        {
            "objectId": "49c0d225-2b36-4791-b95f-1c25b2b2b3f8",
            "address": "Žitna ulica 12, 2000 Maribor, Slovenia",
            "location": {
                "__type": "GeoPoint",
                "latitude": 46.5491667,
                "longitude": 15.6433736
            }
        },
        {
            "objectId": "30677cfe-9c12-4633-be68-b655db68aa9f",
            "address": "Glavni trg 8, 2000 Maribor, Slovenia",
            "location": {
                "__type": "GeoPoint",
                "latitude": 46.55776969999999,
                "longitude": 15.6443681
            }
        },
        {
            "objectId": "66031ca5-072f-4ead-b89b-d7a245ee49f9",
            "address": "Čufarjeva cesta 21, 2000 Maribor, Slovenia",
            "location": {
                "__type": "GeoPoint",
                "latitude": 46.5547152,
                "longitude": 15.6721772
            }
        },
        {
            "objectId": "1881ece5-3fdb-44d8-9e63-f6840c7ba0ec",
            "address": "Oblakova ulica 10, 2000 Maribor, Slovenia",
            "location": {
                "__type": "GeoPoint",
                "latitude": 46.5418867,
                "longitude": 15.6321069
            }
        },
        {
            "objectId": "df5f42c9-ac2a-42f7-aad7-491ebb375567",
            "address": "Gosposka ulica 6, 2000 Maribor, Slovenia",
            "location": {
                "__type": "GeoPoint",
                "latitude": 46.55785729999999,
                "longitude": 15.6464347
            }
        },
        {
            "objectId": "099d9b28-fa88-4d7b-b336-fa5a8b3b2fce",
            "address": "Dravska ulica 10, 2000 Maribor, Slovenia",
            "location": {
                "__type": "GeoPoint",
                "latitude": 46.5567011,
                "longitude": 15.6451676
            }
        },
        {
            "objectId": "40d0ee3d-03a3-4141-b9be-7e8dd174ab22",
            "address": "Pohorska ulica, 2000 Maribor, Slovenia",
            "location": {
                "__type": "GeoPoint",
                "latitude": 46.53315019999999,
                "longitude": 15.6000469
            }
        },
        {
            "objectId": "c91fa94a-e6ec-4774-8f77-a82d0605c130",
            "address": "Lackova cesta 75, 2000 Maribor, Slovenia",
            "location": {
                "__type": "GeoPoint",
                "latitude": 46.5404829,
                "longitude": 15.6068222
            }
        },
        {
            "objectId": "cdea2a20-7192-44a0-b0c6-99c0ee55afd4",
            "address": "Dravska ulica 10, 2000 Maribor, Slovenia",
            "location": {
                "__type": "GeoPoint",
                "latitude": 46.5567011,
                "longitude": 15.6451676
            }
        },
        {
            "objectId": "26bb6bdb-f937-4ac9-832a-f01b27b65994",
            "address": "Gosposka ulica 8, 2000 Maribor, Slovenia",
            "location": {
                "__type": "GeoPoint",
                "latitude": 46.5580461,
                "longitude": 15.6463453
            }
        },
        {
            "objectId": "1fdc1c15-afd2-4ff3-b62d-26fc7d080e45",
            "address": "Meljska c. 39, 2000 Maribor, Slovenia",
            "location": {
                "__type": "GeoPoint",
                "latitude": 46.5607595,
                "longitude": 15.6633011
            }
        },
        {
            "objectId": "437fe104-efb6-4c9a-88a0-0dc14c3ca827",
            "address": "Koroška cesta 13, 2000 Maribor, Slovenia",
            "location": {
                "__type": "GeoPoint",
                "latitude": 46.5577492,
                "longitude": 15.6428224
            }
        },
        {
            "objectId": "f1f32095-58e8-45b1-a005-72b536c9300a",
            "address": "Poštna ulica 3, 2000 Maribor, Slovenia",
            "location": {
                "__type": "GeoPoint",
                "latitude": 46.5582932,
                "longitude": 15.6446954
            }
        },
        {
            "objectId": "cd9bf27b-4348-4f66-b25a-220d4a157905",
            "address": "Počehovska ulica 16, 2000 Maribor, Slovenia",
            "location": {
                "__type": "GeoPoint",
                "latitude": 46.5772035,
                "longitude": 15.6555437
            }
        },
        {
            "objectId": "babb1116-eb59-4438-b00b-8e191e9f80d1",
            "address": "Macunova ulica 1, 2000 Maribor, Slovenia",
            "location": {
                "__type": "GeoPoint",
                "latitude": 46.536078,
                "longitude": 15.6024646
            }
        },
        {
            "objectId": "2356e8ae-72c9-49ae-be0e-97172362b4ab",
            "address": "Miklavška Cesta 82, 2311 Hoče, Slovenia",
            "location": {
                "__type": "GeoPoint",
                "latitude": 46.50058,
                "longitude": 15.6562081
            }
        },
        {
            "objectId": "2516eeba-ac28-46b8-b178-87b3b579cab2",
            "address": "Lahova ulica 38, 2000 Maribor, Slovenia",
            "location": {
                "__type": "GeoPoint",
                "latitude": 46.5275282,
                "longitude": 15.6588682
            }
        },
        {
            "objectId": "8824d653-887d-4234-a47c-7a4c0ee853fc",
            "address": "Ulica heroja Nandeta 31, 2000 Maribor, Slovenia",
            "location": {
                "__type": "GeoPoint",
                "latitude": 46.5325255,
                "longitude": 15.6731679
            }
        },
        {
            "objectId": "9867c529-074d-4c1c-b7e7-55186b4618dd",
            "address": "Slomškov trg 5, 2000 Maribor, Slovenia",
            "location": {
                "__type": "GeoPoint",
                "latitude": 46.5587451,
                "longitude": 15.6455768
            }
        },
        {
            "objectId": "b696abfb-785c-47d0-b278-a5297acfd477",
            "address": "Slivniška cesta 6, 2311 Hoče, Slovenia",
            "location": {
                "__type": "GeoPoint",
                "latitude": 46.4986111,
                "longitude": 15.6491667
            }
        },
        {
            "objectId": "71b572fd-868c-4616-ba4a-337d7cb1c94e",
            "address": "Cesta proletarskih brigad 100, 2000 Maribor, Slovenia",
            "location": {
                "__type": "GeoPoint",
                "latitude": 46.54698519999999,
                "longitude": 15.6193697
            }
        },
        {
            "objectId": "e26e8332-00e8-486f-986f-a287175491bf",
            "address": "Koroška cesta 9, 2000 Maribor, Slovenia",
            "location": {
                "__type": "GeoPoint",
                "latitude": 46.5577136,
                "longitude": 15.6431623
            }
        },
        {
            "objectId": "cd5f061f-af15-4db5-9321-266260b3bc9c",
            "address": "Ob bregu 2, 2000 Maribor, Slovenia",
            "location": {
                "__type": "GeoPoint",
                "latitude": 46.556946,
                "longitude": 15.6405158
            }
        },
        {
            "objectId": "c317c5ef-e0a0-4511-8590-d371c13283d8",
            "address": "Gosposka ulica 8, 2000 Maribor, Slovenia",
            "location": {
                "__type": "GeoPoint",
                "latitude": 46.5580461,
                "longitude": 15.6463453
            }
        },
        {
            "objectId": "009c455f-b967-4287-95ee-3602aa2420fb",
            "address": "Machova ulica 1, 2000 Maribor, Slovenia",
            "location": {
                "__type": "GeoPoint",
                "latitude": 46.5530781,
                "longitude": 15.6437034
            }
        },
        {
            "objectId": "b16d880a-a62f-48f4-8440-3df1a32086a8",
            "address": "Pobreška cesta 18, 2000 Maribor, Slovenia",
            "location": {
                "__type": "GeoPoint",
                "latitude": 46.5537403,
                "longitude": 15.6519573
            }
        },
        {
            "objectId": "a4cf7443-e83e-40ed-a70c-a58755f43eb8",
            "address": "Ljubljanska ulica 9a, 2000 Maribor, Slovenia",
            "location": {
                "__type": "GeoPoint",
                "latitude": 46.5531959,
                "longitude": 15.646614
            }
        },
        {
            "objectId": "1ba04994-3030-47a1-bf29-b90300e71336",
            "address": "Slekovčeva ulica 5, 2000 Maribor, Slovenia",
            "location": {
                "__type": "GeoPoint",
                "latitude": 46.5298684,
                "longitude": 15.6681564
            }
        },
        {
            "objectId": "2dda0c38-84cd-4643-bcc0-19da1a154680",
            "address": "Malečnik 158, 2229 Malečnik, Slovenia",
            "location": {
                "__type": "GeoPoint",
                "latitude": 46.556785,
                "longitude": 15.6897223
            }
        },
        {
            "objectId": "aa24f2ce-e73f-49ac-ba27-a827b4fa94ae",
            "address": "Focheva ulica 41, 2000 Maribor, Slovenia",
            "location": {
                "__type": "GeoPoint",
                "latitude": 46.5453047,
                "longitude": 15.6439175
            }
        },
        {
            "objectId": "a6ddc63d-1fa4-42bd-8737-e813907c408d",
            "address": "Glavni trg 11, 2000 Maribor, Slovenia",
            "location": {
                "__type": "GeoPoint",
                "latitude": 46.5578831,
                "longitude": 15.6450526
            }
        },
        {
            "objectId": "0cab5453-908e-4b1a-9cde-77fe9b370965",
            "address": "Glavni trg 17b, 2000 Maribor, Slovenia",
            "location": {
                "__type": "GeoPoint",
                "latitude": 46.557757,
                "longitude": 15.6463119
            }
        },
        {
            "objectId": "4735c1ee-683f-499c-9ee2-89593c081bb1",
            "address": "Koroška cesta 105a, 2000 Maribor, Slovenia",
            "location": {
                "__type": "GeoPoint",
                "latitude": 46.5606135,
                "longitude": 15.6296182
            }
        },
        {
            "objectId": "ec854acc-95c7-4674-bde2-be7af2ed6417",
            "address": "Lackova cesta 76, 2000 Maribor, Slovenia",
            "location": {
                "__type": "GeoPoint",
                "latitude": 46.5404308,
                "longitude": 15.6074567
            }
        },
        {
            "objectId": "fd967352-5070-49d0-b0f9-edcccf22231d",
            "address": "Poštna ulica 8, 2000 Maribor, Slovenia",
            "location": {
                "__type": "GeoPoint",
                "latitude": 46.5583492,
                "longitude": 15.6448545
            }
        },
        {
            "objectId": "bd6c8600-be48-45c5-8bef-c6f3c5d7ef4e",
            "address": "Koroška cesta 105a, 2000 Maribor, Slovenia",
            "location": {
                "__type": "GeoPoint",
                "latitude": 46.5606135,
                "longitude": 15.6296182
            }
        },
        {
            "objectId": "eda2dfb2-d8ce-4c55-9562-696c89cf2d89",
            "address": "Ulica Eve Lovše 1, 2000 Maribor, Slovenia",
            "location": {
                "__type": "GeoPoint",
                "latitude": 46.5395577,
                "longitude": 15.6401086
            }
        },
        {
            "objectId": "09325dca-c01a-4b14-b939-26c79aef5e19",
            "address": "Pobreška cesta 18, 2000 Maribor, Slovenia",
            "location": {
                "__type": "GeoPoint",
                "latitude": 46.5537403,
                "longitude": 15.6519573
            }
        },
        {
            "objectId": "7d7cdd45-1408-4ebe-a41a-80b1d49a65aa",
            "address": "Poštna ulica 3, 2000 Maribor, Slovenia",
            "location": {
                "__type": "GeoPoint",
                "latitude": 46.5582932,
                "longitude": 15.6446954
            }
        },
        {
            "objectId": "cf3a0ef7-bd34-4c2d-b2e3-c6f616600e8e",
            "address": "Grajski trg 6, 2000 Maribor, Slovenia",
            "location": {
                "__type": "GeoPoint",
                "latitude": 46.560041,
                "longitude": 15.6484564
            }
        },
        {
            "objectId": "e9d7c220-f362-467d-98ac-8b8c4f55b262",
            "address": "Koresova ulica 7, 2000 Maribor, Slovenia",
            "location": {
                "__type": "GeoPoint",
                "latitude": 46.5497398,
                "longitude": 15.6369756
            }
        },
        {
            "objectId": "fae99ba0-0d66-4873-99c3-6b2bd9b20344",
            "address": "Ruska ulica 4, 2000 Maribor, Slovenia",
            "location": {
                "__type": "GeoPoint",
                "latitude": 46.5332048,
                "longitude": 15.6666902
            }
        },
        {
            "objectId": "aa12196f-86dc-4795-a892-88fc14de30cd",
            "address": "Pobreška cesta 18, 2000 Maribor, Slovenia",
            "location": {
                "__type": "GeoPoint",
                "latitude": 46.5537403,
                "longitude": 15.6519573
            }
        },
        {
            "objectId": "01f70553-b91b-4a9c-a31a-c74f5f02b5e7",
            "address": "Poštna ulica 1, 2000 Maribor, Slovenia",
            "location": {
                "__type": "GeoPoint",
                "latitude": 46.5579598,
                "longitude": 15.6446897
            }
        },
        {
            "objectId": "1504ead8-361f-4a0c-9ae2-47c4e8018c8f",
            "address": "Čufarjeva cesta 21, 2000 Maribor, Slovenia",
            "location": {
                "__type": "GeoPoint",
                "latitude": 46.5547152,
                "longitude": 15.6721772
            }
        },
        {
            "objectId": "6c5836d5-4204-4012-bfdf-eeacc02d319e",
            "address": "Koroška cesta 5, 2000 Maribor, Slovenia",
            "location": {
                "__type": "GeoPoint",
                "latitude": 46.5571746,
                "longitude": 15.6439332
            }
        },
        {
            "objectId": "bce32d28-d66f-4859-9b9c-1d8b79c27181",
            "address": "Pohorska cesta 18, 2311 Hoče, Slovenia",
            "location": {
                "__type": "GeoPoint",
                "latitude": 46.499126,
                "longitude": 15.6463098
            }
        },
        {
            "objectId": "3946e3b2-64ad-41ce-b1d4-b1154e8d8062",
            "address": "Tržaška cesta 39, 2000 Maribor, Slovenia",
            "location": {
                "__type": "GeoPoint",
                "latitude": 46.528816,
                "longitude": 15.6475046
            }
        },
        {
            "objectId": "c060adc5-a498-4296-8b29-b6b997bc1f68",
            "address": "Pohorska ulica, 2000 Maribor, Slovenia",
            "location": {
                "__type": "GeoPoint",
                "latitude": 46.53315019999999,
                "longitude": 15.6000469
            }
        },
        {
            "objectId": "0b83b083-0574-43cb-bb0c-8f1d33885783",
            "address": "Orožnova ulica 3, 2000 Maribor, Slovenia",
            "location": {
                "__type": "GeoPoint",
                "latitude": 46.5587855,
                "longitude": 15.6429765
            }
        },
        {
            "objectId": "d975e7db-d84c-4ee1-b8ba-d7a8e43e3a40",
            "address": "Poštna ulica 8, 2000 Maribor, Slovenia",
            "location": {
                "__type": "GeoPoint",
                "latitude": 46.5583492,
                "longitude": 15.6448545
            }
        },
        {
            "objectId": "4b81e621-1a4b-42cb-adda-fad87627f787",
            "address": "Betnavska cesta 39, 2000 Maribor, Slovenia",
            "location": {
                "__type": "GeoPoint",
                "latitude": 46.5462643,
                "longitude": 15.6394466
            }
        },
        {
            "objectId": "e59270fb-941b-4544-9753-980d136fa4ec",
            "address": "Na Poljanah 18, 2000 Maribor, Slovenia",
            "location": {
                "__type": "GeoPoint",
                "latitude": 46.5524907,
                "longitude": 15.6279045
            }
        },
        {
            "objectId": "dd42daf9-04b7-42cf-8f5f-6b09603e35d2",
            "address": "Gosposka ulica 8, 2000 Maribor, Slovenia",
            "location": {
                "__type": "GeoPoint",
                "latitude": 46.5580461,
                "longitude": 15.6463453
            }
        },
        {
            "objectId": "c4205d4f-2d64-4871-b3aa-cc6212524d12",
            "address": "Cesta proletarskih brigad 100, 2000 Maribor, Slovenia",
            "location": {
                "__type": "GeoPoint",
                "latitude": 46.54698519999999,
                "longitude": 15.6193697
            }
        },
        {
            "objectId": "5465a2a0-12b5-46f9-9b70-4a951c3b9d9a",
            "address": "Splavarski prehod 5a, 2000 Maribor, Slovenia",
            "location": {
                "__type": "GeoPoint",
                "latitude": 46.5569517,
                "longitude": 15.6442851
            }
        },
        {
            "objectId": "d0477584-cb3d-4c5d-baa3-53943b5478d1",
            "address": "Bohova 80, 2311 Hoče, Slovenia",
            "location": {
                "__type": "GeoPoint",
                "latitude": 46.5042443,
                "longitude": 15.6622323
            }
        },
        {
            "objectId": "55afc314-7668-43e6-9670-aac681f492b8",
            "address": "Koroška cesta 160, 2000 Maribor, Slovenia",
            "location": {
                "__type": "GeoPoint",
                "latitude": 46.5635287,
                "longitude": 15.6241303
            }
        },
        {
            "objectId": "06c1b9e3-5d9e-4dd5-987a-96432ea1ed7c",
            "address": "Šentiljska cesta 31, 2000 Maribor, Slovenia",
            "location": {
                "__type": "GeoPoint",
                "latitude": 46.5694659,
                "longitude": 15.6580817
            }
        },
        {
            "objectId": "c1ae9e76-468d-4e4e-b2b9-ba01cc4f5333",
            "address": "Mladinska ulica 12a, 2000 Maribor, Slovenia",
            "location": {
                "__type": "GeoPoint",
                "latitude": 46.56369489999999,
                "longitude": 15.6452546
            }
        },
        {
            "objectId": "c7b711b3-61fb-46cd-a3c4-73e7fa2cb076",
            "address": "Cesta XIV. divizije 89, 2000 Maribor, Slovenia",
            "location": {
                "__type": "GeoPoint",
                "latitude": 46.5456862,
                "longitude": 15.6743624
            }
        },
        {
            "objectId": "4c80fa4f-332a-4c7f-9387-838289e5daf5",
            "address": "Gosposvetska cesta 19, 2000 Maribor, Slovenia",
            "location": {
                "__type": "GeoPoint",
                "latitude": 46.5607589,
                "longitude": 15.6392304
            }
        },
        {
            "objectId": "1e8e05fb-cedc-4664-98e9-e838a2e25949",
            "address": "Bezjakova ulica 6, 2341 Limbuš, Slovenia",
            "location": {
                "__type": "GeoPoint",
                "latitude": 46.5475787,
                "longitude": 15.5936363
            }
        },
        {
            "objectId": "ebe473db-13fa-4e58-9946-5c97364d1800",
            "address": "Vetrinjska ulica 5, 2000 Maribor, Slovenia",
            "location": {
                "__type": "GeoPoint",
                "latitude": 46.5581116,
                "longitude": 15.6475986
            }
        },
        {
            "objectId": "373a539b-c6e0-4c08-b8e7-88b6d7c5ffa3",
            "address": "Ljubljanska ulica 4, 2000 Maribor, Slovenia",
            "location": {
                "__type": "GeoPoint",
                "latitude": 46.5534817,
                "longitude": 15.6460446
            }
        },
        {
            "objectId": "c89d7f33-8376-4ba9-a981-4777049f6019",
            "address": "Slovenska ulica 18, 2000 Maribor, Slovenia",
            "location": {
                "__type": "GeoPoint",
                "latitude": 46.5604175,
                "longitude": 15.6461178
            }
        },
        {
            "objectId": "c8cad90b-0d93-49c3-b4da-2faa2e2729da",
            "address": "Slovenska ulica 27, 2000 Maribor, Slovenia",
            "location": {
                "__type": "GeoPoint",
                "latitude": 46.5594915,
                "longitude": 15.6438691
            }
        },
        {
            "objectId": "234fbcb3-3a52-478a-8661-34d5f46c0e9d",
            "address": "Šolska ulica 46, 2000 Maribor, Slovenia",
            "location": {
                "__type": "GeoPoint",
                "latitude": 46.5543671,
                "longitude": 15.6698741
            }
        },
        {
            "objectId": "3745c607-a4c1-4c88-b4f2-83c03d09be7b",
            "address": "Gosposvetska cesta 84, 2000 Maribor, Slovenia",
            "location": {
                "__type": "GeoPoint",
                "latitude": 46.56345289999999,
                "longitude": 15.6279686
            }
        },
        {
            "objectId": "2cd1dd65-a6e8-47ec-835d-a28177147bf2",
            "address": "Preradovičeva ulica 24, 2000 Maribor, Slovenia",
            "location": {
                "__type": "GeoPoint",
                "latitude": 46.5531611,
                "longitude": 15.6281818
            }
        },
        {
            "objectId": "29fe219b-6054-4d78-8c92-8f9475d1128f",
            "address": "Pobreška cesta 18, 2000 Maribor, Slovenia",
            "location": {
                "__type": "GeoPoint",
                "latitude": 46.5537403,
                "longitude": 15.6519573
            }
        },
        {
            "objectId": "5a9f4986-74c7-4a98-b871-0f177386eb78",
            "address": "Koroška cesta 59, 2000 Maribor, Slovenia",
            "location": {
                "__type": "GeoPoint",
                "latitude": 46.55910230000001,
                "longitude": 15.6351554
            }
        },
        {
            "objectId": "73d5f370-cc51-46ee-8b65-433c7f76ab9b",
            "address": "Vodnikov trg 4, 2000 Maribor, Slovenia",
            "location": {
                "__type": "GeoPoint",
                "latitude": 46.55822389999999,
                "longitude": 15.6408708
            }
        },
        {
            "objectId": "55f61654-1f00-4f0f-abb2-39add0f943fe",
            "address": "Partizanska cesta 1, 2000 Maribor, Slovenia",
            "location": {
                "__type": "GeoPoint",
                "latitude": 46.5605568,
                "longitude": 15.6495778
            }
        }
    ]
}